City_ID,City,Lat,Lng,Max Temp,Humidity,Cloudiness,Wind Speed,Country,Date
0,Olonkinbyen,70.9221,-8.7187,19.4,58,40,18.59,SJ,1732906145
1,Ushuaia,-54.8,-68.3,51.46,54,40,32.21,AR,1732906146
2,Fale old settlement,-9.3852,-171.2468,81.73,76,75,15.68,TK,1732906147
3,Grytviken,-54.2811,-36.5092,41.88,82,100,9.73,GS,1732906149
4,Saint Paul Harbor,57.79,-152.4072,27.91,69,75,11.5,US,1732906150
5,Haiku-Pauwela,20.9219,-156.3051,76.05,81,25,11.99,US,1732906151
6,Ironwood,46.4547,-90.171,16.61,86,100,16.11,US,1732905902
7,Edinburgh of the Seven Seas,-37.0676,-12.3116,60.91,90,100,14.16,SH,1732906153
8,Bethel,41.3712,-73.414,43.93,65,40,4.61,US,1732906154
9,Thompson,55.7435,-97.8558,5.16,85,100,4.61,CA,1732906156
10,Vadsø,70.0744,29.7487,30.36,74,40,46.04,NO,1732906157
11,Ust-Nera,64.5667,143.2,-12.78,93,13,1.32,RU,1732906158
12,Lüderitz,-26.6481,15.1594,66.15,65,0,14.58,NA,1732906159
13,West Island,-12.1568,96.8225,80.58,94,20,8.05,CC,1732906160
14,Sari,36.5633,53.0601,45.99,87,0,6.91,IR,1732906162
15,Sitka,57.0531,-135.33,28.29,50,40,10.36,US,1732906163
16,Bento Gonçalves,-29.1714,-51.5192,77.52,76,99,1.01,BR,1732906164
17,Tarawa,1.419,172.984,82.49,78,20,10.36,KI,1732906165
18,Alice Springs,-23.7,133.8833,74.75,50,100,5.75,AU,1732906166
19,Khandyga,62.6667,135.6,-6.72,99,100,1.95,RU,1732906167
20,Zeya,53.75,127.2667,6.67,95,100,3.62,RU,1732906168
21,Bu’aale,1.0833,42.5833,76.44,90,100,6.24,SO,1732906169
22,Gadzhiyevo,69.2551,33.3362,27.66,75,8,26.26,RU,1732906170
23,Margaret River,-33.95,115.0667,64.78,45,0,8.28,AU,1732906172
24,Port-aux-Français,-49.35,70.2167,40.24,81,100,10.33,TF,1732906173
25,Cruz,-2.9178,-40.1717,85.24,56,100,18.81,BR,1732906174
26,Aasiaat,68.7098,-52.8699,10.06,81,83,5.35,GL,1732906175
27,Baghlan,35.75,69.0,42.15,89,99,1.92,AF,1732906176
28,Nuuk,64.1835,-51.7216,29.01,80,100,2.3,GL,1732906177
29,Yellowknife,62.456,-114.3525,-8.59,96,75,3.44,CA,1732905961
30,Douentza,14.9951,-2.9517,74.61,16,0,6.78,ML,1732906179
31,Perryton,36.4,-100.8027,48.2,57,0,12.66,US,1732905925
32,Adamstown,-25.066,-130.1015,72.77,81,100,16.8,PN,1732906180
33,Tazacorte,28.629,-17.9293,74.37,43,0,7.0,ES,1732906183
34,Klyuchi,52.2667,79.1667,13.15,92,11,4.79,RU,1732906184
35,Bredasdorp,-34.5322,20.0403,63.77,74,7,6.69,ZA,1732906185
36,Puerto Natales,-51.7236,-72.4875,61.25,41,40,33.38,CL,1732906186
37,Killarney,52.05,-9.5167,55.06,94,99,6.93,IE,1732906188
38,Pontianak,-0.0333,109.3333,76.98,100,75,2.3,ID,1732906189
39,Swakopmund,-22.6833,14.5333,61.93,87,0,1.66,NA,1732906190
40,Leava,-14.3,-178.1667,81.81,78,84,11.39,WF,1732906191
41,Hermanus,-34.4187,19.2345,65.8,71,12,9.73,ZA,1732906192
42,Pôsto Fiscal Rolim de Moura,-13.0833,-62.2667,96.57,38,18,3.18,BR,1732906193
43,Nova Sintra,14.8667,-24.7167,78.62,74,7,15.37,CV,1732906194
44,Avarua,-21.2078,-159.775,78.85,83,75,5.75,CK,1732906195
45,Kerikeri,-35.2268,173.9474,59.92,93,99,3.24,NZ,1732906197
46,Waitangi,-43.9535,-176.5597,51.82,76,97,11.99,NZ,1732906192
47,Korla,41.7597,86.1469,28.31,75,0,4.03,CN,1732906199
48,Udachny,66.4167,112.4,-6.02,94,100,13.98,RU,1732906172
49,Moranbah,-22.0016,148.0466,72.41,88,100,9.89,AU,1732906201
50,Ilulissat,69.2167,-51.1,19.42,73,75,12.66,GL,1732906202
51,Hasaki,35.7333,140.8333,51.91,56,0,12.21,JP,1732906203
52,São Gonçalo do Amarante,-3.6072,-38.9683,83.12,53,82,12.03,BR,1732905986
53,Botou,38.0667,116.5667,41.59,51,0,6.42,CN,1732906206
54,Invercargill,-46.4,168.35,46.02,93,8,3.62,NZ,1732906207
55,Iskateley,67.6803,53.1512,25.39,93,100,17.92,RU,1732906058
56,College,64.8569,-147.8028,-20.25,55,75,0.0,US,1732906209
57,Tsiombe,-25.3,45.4833,72.34,70,95,6.44,MG,1732905964
58,Afaahiti,-17.75,-149.2833,78.6,81,76,15.5,PF,1732906211
59,Shortandy,51.7006,70.9994,2.52,94,100,3.31,KZ,1732906212
60,Sandnessjøen,66.0217,12.6316,32.41,69,75,3.44,NO,1732906214
61,Saltpond,5.2091,-1.0606,80.4,80,1,7.7,GH,1732906215
62,Carnarvon,-24.8667,113.6333,77.34,70,100,6.51,AU,1732906216
63,Talnakh,69.4865,88.3972,-4.27,99,100,8.68,RU,1732906160
64,Port Elizabeth,-33.918,25.5701,65.32,81,0,9.22,ZA,1732906209
65,Caconda,-13.7333,15.0667,62.42,94,100,3.69,AO,1732906219
66,Shenandoah,30.4013,-91.0009,57.94,51,3,5.99,US,1732906220
67,Puerto Baquerizo Moreno,-0.9,-89.6,79.79,57,40,11.5,EC,1732906025
68,George Town,5.4112,100.3354,78.73,83,20,3.44,MY,1732905800
69,Sangmélima,2.9333,11.9833,73.36,68,27,2.33,CM,1732906224
70,Kununurra,-15.7667,128.7333,78.78,94,99,0.0,AU,1732906225
71,Al Jawf,29.5,38.75,54.07,36,0,8.1,SA,1732906226
72,Kikwit,-5.041,18.8162,75.09,78,91,2.1,CD,1732906227
73,Kailua-Kona,19.6406,-155.9956,79.56,62,0,4.61,US,1732906219
74,Lyubim,58.3625,40.6843,33.49,94,100,8.34,RU,1732906229
75,Carutapera,-1.195,-46.02,84.85,61,94,9.98,BR,1732906230
76,Island Harbour,50.724,-1.2758,52.02,75,48,10.0,GB,1732906232
77,Villazón,-22.0866,-65.5942,68.5,36,74,19.22,BO,1732906233
78,Finisterra,42.9049,-9.2629,60.93,93,93,17.25,ES,1732906234
79,Palmer,42.1584,-72.3287,44.53,46,100,1.99,US,1732906235
80,Iquique,-20.2208,-70.1431,68.68,78,85,7.54,CL,1732906226
81,Isafjordur,66.0755,-23.124,14.04,79,20,0.0,IS,1732906237
82,Saint-Philippe,-21.3585,55.7679,76.1,84,41,15.28,RE,1732906238
83,Sandy City,40.572,-111.8606,39.16,57,0,8.99,US,1732906240
84,Perevolotskiy,51.8763,54.1938,27.19,66,8,5.57,RU,1732906241
85,Saipan,15.1355,145.701,83.1,86,40,11.01,MP,1732906242
86,Hawaiian Paradise Park,19.5933,-154.9731,71.89,97,100,3.44,US,1732906191
87,Anadyr,64.75,177.4833,30.7,80,75,11.18,RU,1732906244
88,Saldanha,-33.0117,17.9442,69.85,86,5,19.28,ZA,1732906245
89,Maisi,43.0395,41.2621,35.06,81,65,4.56,GE,1732906246
90,Barra de Santo Antônio,-9.4047,-35.5072,80.83,68,52,10.78,BR,1732906247
91,Minas de Marcona,-15.2119,-75.1103,70.05,61,100,16.28,PE,1732906250
92,Pundong,-7.9522,110.3486,77.67,88,100,4.12,ID,1732906251
93,Mont-Dore,-22.2833,166.5833,72.73,81,100,7.07,NC,1732906252
94,Hamilton,39.1834,-84.5333,35.2,62,100,13.8,US,1732906026
95,Tateyama,34.9833,139.8667,54.36,53,0,34.23,JP,1732906254
96,Farim,12.4839,-15.2217,82.09,22,0,3.8,GW,1732906255
97,Coquimbo,-29.9533,-71.3436,64.98,63,20,14.97,CL,1732906218
98,Qaqortoq,60.7167,-46.0333,9.93,69,5,5.79,GL,1732906224
99,Tiksi,71.6872,128.8694,-5.33,99,69,5.46,RU,1732906259
100,Gaalkacyo,6.7697,47.4308,77.86,67,100,17.38,SO,1732906260
101,Naze,28.3667,129.4833,61.72,66,100,13.35,JP,1732906261
102,Blackmans Bay,-43.0167,147.3167,55.72,81,98,5.53,AU,1732906263
103,Ribeira Grande,38.5167,-28.7,61.2,63,75,20.71,PT,1732906179
104,Ubari,26.5921,12.7805,57.65,38,0,5.95,LY,1732906265
105,Stanley,54.868,-1.6985,42.82,87,0,4.61,GB,1732905846
106,Youkounkoun,12.5333,-13.1333,81.93,16,0,4.99,GN,1732906267
107,Cologne,50.9333,6.95,39.96,81,0,8.05,DE,1732906268
108,Iqaluit,63.7506,-68.5145,19.13,79,100,3.44,CA,1732905986
109,Albany,42.6001,-73.9662,38.44,65,100,1.99,US,1732905977
110,Saint-François,46.4154,3.9054,38.64,100,100,4.61,FR,1732906272
111,Wailua Homesteads,22.0669,-159.378,65.19,100,0,5.75,US,1732906273
112,Puerto Ayora,-0.7393,-90.3518,73.54,85,36,8.01,EC,1732906274
113,Hotan,37.0997,79.9269,31.66,47,65,3.24,CN,1732906162
114,Mount Isa,-20.7333,139.5,67.77,94,0,0.0,AU,1732906276
115,Chonchi,-42.6128,-73.8092,63.3,51,6,4.41,CL,1732906277
116,Petropavlovsk-Kamchatskiy,53.0452,158.6483,27.19,93,75,4.47,RU,1732906278
117,Pont Rouge,48.8833,-72.0825,31.21,68,100,4.12,CA,1732906279
118,Mili,6.0815,171.735,79.77,83,100,17.07,MH,1732906281
119,Badger,64.8,-147.5333,-20.33,75,0,0.0,US,1732906040
120,Kalmunai,7.4167,81.8167,76.86,86,100,3.67,LK,1732906283
121,Yuzhno-Kurilsk,44.0306,145.8556,33.13,71,16,9.62,RU,1732906285
122,Itaituba,-4.2761,-55.9836,93.36,59,20,6.91,BR,1732906286
123,Constanța,44.1833,28.65,43.7,75,99,9.31,RO,1732906288
124,Angaur State,6.906,134.13,81.97,76,100,7.36,PW,1732906289
125,Lompoc,34.6391,-120.4579,62.13,61,0,8.05,US,1732906290
126,Berdigestyakh,62.0989,126.6992,-6.95,100,100,3.67,RU,1732906292
127,Tura,25.5198,90.2201,61.0,66,1,3.33,IN,1732906293
128,Köprübaşı,40.8086,40.1238,36.72,77,100,7.61,TR,1732906295
129,Vila do Maio,15.1333,-23.2167,77.2,78,6,7.47,CV,1732906296
130,Praia da Vitória,38.7333,-27.0667,62.85,82,40,18.57,PT,1732906297
131,Utrik,11.2278,169.8474,82.6,73,95,23.44,MH,1732906298
132,Buenos Aires,-34.6132,-58.3772,82.99,35,23,8.01,AR,1732906012
133,Namsos,64.4662,11.4957,30.11,93,75,6.91,NO,1732906300
134,Mossamedes,-15.1961,12.1522,71.94,87,100,11.3,AO,1732906301
135,Nagqu Prefecture,31.5,92.0,13.5,15,100,2.77,CN,1732906303
136,Neiafu,-18.65,-173.9833,75.88,100,75,0.0,TO,1732906304
137,Ghat,24.9647,10.1728,62.1,21,0,5.14,LY,1732906305
138,Fortuna,40.5982,-124.1573,47.98,100,0,5.75,US,1732906306
139,Kolwezi,-10.7148,25.4667,63.32,87,93,1.28,CD,1732906307
140,Vorkuta,67.5,64.0,21.85,88,100,14.05,RU,1732906308
141,Quezon,7.7303,125.0989,72.01,97,100,1.52,PH,1732906309
142,Saint-Leu,-21.15,55.2833,76.06,94,4,3.31,RE,1732906310
143,Nizhniy Odes,63.6445,54.856,22.44,94,99,5.03,RU,1732906313
144,Walvis Bay,-22.9575,14.5053,61.0,86,0,2.37,NA,1732906314
145,Jamestown,42.097,-79.2353,31.01,88,100,18.41,US,1732906160
146,Northam,51.0333,-4.2167,53.62,96,100,17.47,GB,1732906317
147,Dudinka,69.4058,86.1778,-0.11,95,100,8.48,RU,1732906318
148,Homer,59.6425,-151.5483,19.78,45,0,6.91,US,1732906319
149,Tabou,4.423,-7.3528,80.11,81,6,9.35,CI,1732906321
150,Kirensk,57.7853,108.1119,-7.1,100,98,1.57,RU,1732906322
151,Strelka,58.0728,93.0344,18.1,97,100,5.01,RU,1732906323
152,Tazovsky,67.4667,78.7,9.18,94,100,9.46,RU,1732906324
153,Lishui,28.4604,119.9103,40.98,73,0,0.69,CN,1732906325
154,Cockburn Town,21.4612,-71.1419,82.36,94,40,5.75,TC,1732906095
155,Tuburan,6.6439,122.2736,79.75,81,100,1.88,PH,1732906327
156,Kingston,17.997,-76.7936,85.15,74,75,12.66,JM,1732906078
157,Aykhal,66.0,111.5,-9.81,98,100,9.24,RU,1732906330
158,Talovaya,51.1144,40.73,28.98,88,100,3.29,RU,1732906332
159,Lebu,-37.6167,-73.65,60.26,65,5,15.26,CL,1732906333
160,Yŏngbyŏn,39.8133,125.8042,27.12,79,4,1.36,KP,1732906334
161,Beau Vallon,-20.4189,57.6953,77.23,83,40,12.66,MU,1732906335
162,Vozhega,60.4725,40.2213,32.11,93,100,10.13,RU,1732906336
163,Bektemir,41.2097,69.3342,44.65,93,100,13.8,UZ,1732906338
164,Greymouth,-42.4667,171.2,54.79,77,2,3.94,NZ,1732906070
165,Rundu,-17.9333,19.7667,81.3,17,10,5.03,NA,1732906340
166,Palāsa,18.7667,84.4167,70.05,87,100,7.81,IN,1732906341
167,Papatowai,-46.5619,169.4708,48.22,67,6,6.49,NZ,1732906342
168,Ola,59.5833,151.2833,17.13,79,17,15.1,RU,1732906343
169,Amga,60.8953,131.9608,2.82,96,100,1.99,RU,1732906344
170,Naryan-Mar,67.6713,53.087,25.39,93,100,17.87,RU,1732906345
171,Sal'sk,46.4725,41.5428,31.24,84,28,5.32,RU,1732906347
172,Longyearbyen,78.2186,15.6401,13.84,57,75,16.11,SJ,1732906348
173,Talcahuano,-36.7167,-73.1167,71.28,40,0,8.05,CL,1732906349
174,Susuman,62.7833,148.1667,-13.25,99,83,0.72,RU,1732906350
175,Corbeni,45.3,24.65,36.93,88,100,2.04,RO,1732906351
176,Téra,14.0078,0.7531,75.02,13,0,10.22,NE,1732906352
177,Tamazunchale,21.2667,-98.7833,60.1,88,100,2.53,MX,1732906354
178,Bilibino,68.0546,166.4372,-5.87,97,5,5.1,RU,1732906167
179,San Julián,21.0167,-102.1667,78.75,13,0,7.76,MX,1732906356
180,Baikonur,45.6167,63.3167,37.63,89,9,4.21,KZ,1732906357
181,Lospalos,-8.5186,127.0025,75.06,92,91,3.15,TL,1732906358
182,Machico,32.7,-16.7667,76.01,88,75,8.05,PT,1732906359
183,Dryden,49.7833,-92.7503,14.29,79,100,13.8,CA,1732906360
184,Tromsø,69.6496,18.957,30.22,47,75,23.02,NO,1732906260
185,Polyarny,69.1989,33.4478,28.11,74,10,25.77,RU,1732906363
186,Mossel Bay,-34.1831,22.146,64.33,74,10,14.16,ZA,1732906365
187,Howard Springs,-12.497,131.047,78.71,95,100,3.98,AU,1732906366
188,Peraiyur,9.7358,77.7896,75.72,77,100,1.88,IN,1732906368
189,Bontang,0.1333,117.5,77.83,89,82,5.97,ID,1732906369
190,Laojunmiao,39.8333,97.7333,20.93,43,0,8.75,CN,1732906370
191,Noumea,-22.2763,166.4572,73.85,78,91,11.68,NC,1732906371
192,Jerash,32.2808,35.8993,53.19,85,5,2.04,JO,1732906373
193,Sadjoavato,-12.6334,49.349,74.5,84,100,3.69,MG,1732906376
194,San Agustín de Valle Fértil,-30.6335,-67.4682,73.0,46,100,10.65,AR,1732906377
195,Sīwah,29.2041,25.5195,64.04,48,23,6.51,EG,1732906378
196,Vitória da Conquista,-14.8661,-40.8394,76.15,76,100,5.93,BR,1732906317
197,São João da Barra,-21.6403,-41.0511,91.49,85,66,12.93,BR,1732906382
198,Port Mathurin,-19.6833,63.4167,76.17,70,0,19.39,MU,1732906383
199,Yershov,51.3513,48.2766,27.18,93,62,8.19,RU,1732906384
200,Chiang Klang,19.2938,100.8617,64.17,94,14,1.32,TH,1732906385
201,Illizi,26.4833,8.4667,64.67,22,0,7.14,DZ,1732906387
202,Novyy Urgal,51.0736,132.5642,3.56,98,97,2.13,RU,1732906388
203,Atafu Village,-8.5421,-172.5159,83.03,71,12,14.36,TK,1732906389
204,Hadibu,12.65,54.0333,78.28,71,100,12.91,YE,1732906390
205,East London,-33.0153,27.9116,65.34,72,75,4.61,ZA,1732906391
206,Hashtrūd,37.4779,47.0508,32.61,57,7,3.8,IR,1732906392
207,Guerrero Negro,27.9769,-114.0611,74.52,38,100,2.89,MX,1732906393
208,Lihue,21.9789,-159.3672,65.79,100,0,5.75,US,1732906394
209,Toliara,-23.35,43.6667,75.25,72,99,12.12,MG,1732906396
210,Vorgashor,67.5833,63.95,21.94,88,100,15.03,RU,1732906397
211,Ad Dabbah,18.05,30.95,65.57,26,0,10.92,SD,1732906398
212,Magadan,59.5667,150.8,20.21,73,20,14.94,RU,1732906399
213,Viranşehir,37.2353,39.7631,41.11,54,0,5.01,TR,1732906400
214,Bocana de Paiwas,12.7857,-85.1227,82.38,76,37,12.26,NI,1732906401
215,Port-Vila,-17.7338,168.3219,73.0,100,75,2.3,VU,1732906402
216,Sibolga,1.7427,98.7792,77.32,87,100,2.89,ID,1732906404
217,Khovd,48.0056,91.6419,8.87,73,18,1.66,MN,1732906405
218,Uray,60.1247,64.7758,28.78,95,100,5.12,RU,1732906406
219,Savanna-la-Mar,18.219,-78.1332,79.93,86,100,1.86,JM,1732906407
220,Kumul,42.8,93.45,25.65,73,0,1.57,CN,1732906408
221,Port Lincoln,-34.7333,135.8667,57.58,87,76,7.34,AU,1732906409
222,Distrikt Brokopondo,4.75,-55.1667,85.89,59,89,6.55,SR,1732906411
223,Stepnogorsk,52.3544,71.8869,5.76,90,34,6.64,KZ,1732906413
224,La Passe,45.5549,-0.8967,56.23,80,15,4.63,FR,1732906414
225,Namdrik,5.5994,168.1028,80.94,82,77,14.81,MH,1732906415
226,Eyl,7.9803,49.8164,78.69,75,35,19.69,SO,1732906416
227,Kratié,12.4881,106.0188,72.88,63,100,12.5,KH,1732906418
228,Cadale,2.7603,46.3222,80.74,79,11,15.73,SO,1732906419
229,Arraial do Cabo,-22.9661,-42.0278,76.96,94,75,12.66,BR,1732906420
230,Zakynthos,37.7914,20.8953,61.92,88,40,0.0,GR,1732906421
231,Mergen,49.1833,125.2167,-10.52,99,27,1.92,CN,1732906423
232,Tobelo,1.7284,128.0095,81.1,83,92,0.47,ID,1732906424
233,Prince George,53.9166,-122.753,29.64,91,100,19.57,CA,1732906427
234,Kogalym,62.2654,74.4791,13.68,90,99,10.16,RU,1732906428
235,Nikolayevsk-on-Amur,53.1406,140.73,30.56,98,100,4.43,RU,1732906429
236,Alaghsas,17.0187,8.0168,71.49,20,0,11.5,NE,1732906430
237,Slave Lake,55.2834,-114.769,-4.02,77,100,12.66,CA,1732906431
238,Kulhudhuffushi,6.6221,73.07,82.53,76,100,10.78,MV,1732906432
239,Mikhaylovskoye,51.8239,79.7172,20.14,89,100,3.85,RU,1732906433
240,Inírida,3.8653,-67.9239,90.07,57,96,1.14,CO,1732906435
241,Port Shepstone,-30.7414,30.455,68.16,71,100,11.07,ZA,1732906436
242,Tadine,-21.55,167.8833,72.46,83,15,11.99,NC,1732906437
243,Palau,7.503,134.621,78.76,94,75,5.75,PW,1732906438
244,Margate,51.3813,1.3862,44.69,76,10,3.0,GB,1732906293
245,Alcácer do Sal,38.3733,-8.5144,61.61,92,97,3.38,PT,1732906441
246,San Patricio,28.017,-97.5169,55.35,32,100,10.6,US,1732906443
247,Peace River,56.2501,-117.286,-3.69,77,100,11.5,CA,1732906250
248,Inari,68.906,27.0288,25.38,81,100,12.21,FI,1732906445
249,Panambi,-28.2925,-53.5017,84.36,56,99,6.85,BR,1732906446
250,Taoudenni,22.6783,-3.9836,73.29,17,100,12.82,ML,1732906448
251,Kill Devil Hills,36.0307,-75.676,53.98,63,0,8.05,US,1732906355
252,Inhambane,-23.865,35.3833,71.22,75,11,11.61,MZ,1732906450
253,Pacific Grove,36.6177,-121.9166,61.5,74,100,5.99,US,1732906343
254,Enewetak,11.3474,162.3373,82.62,78,100,22.68,MH,1732906452
255,Salinas,36.6777,-121.6555,61.83,58,0,14.97,US,1732905804
256,Weno,7.4515,151.8468,82.35,89,75,8.05,FM,1732906454
257,Pointe aux Piments,-20.0628,57.5131,77.52,79,39,13.6,MU,1732906455
258,Béchar,31.6167,-2.2167,66.52,22,0,2.3,DZ,1732906457
259,San Luis de la Loma,17.2706,-100.8939,84.16,66,53,4.38,MX,1732906458
260,Miðvágur,62.0511,-7.1939,47.23,81,75,5.75,FO,1732906459
261,Sinabang,2.4803,96.3801,79.61,86,100,2.89,ID,1732906460
262,Nemuro,43.3236,145.575,37.56,61,11,18.63,JP,1732906461
263,Novokuznetsk,53.7557,87.1099,24.42,96,100,3.49,RU,1732906462
264,Mahina,-17.5065,-149.489,83.97,70,40,5.75,PF,1732906463
265,Tanjung Selor,2.8372,117.3642,75.07,98,100,2.19,ID,1732906466
266,Itoman,26.1247,127.6694,64.78,59,75,17.27,JP,1732906467
267,Santa Ana de Yacuma,-13.75,-65.4333,91.35,62,40,11.5,BO,1732906468
268,Stornoway,58.2093,-6.3865,52.09,94,75,23.02,GB,1732906469
269,Mysen,59.5535,11.3258,42.64,98,100,1.99,NO,1732906470
270,Quiberon,47.4841,-3.1196,55.2,84,0,10.47,FR,1732906471
271,Zhympīty,50.2536,52.595,28.63,66,67,7.7,KZ,1732906472
272,Don Luan,11.5333,106.9167,73.94,76,93,6.29,VN,1732906473
273,Boguchany,58.3814,97.4531,5.88,99,94,5.06,RU,1732906189
274,Taltal,-25.4,-70.4833,67.1,69,27,8.9,CL,1732906476
275,Castillos,-34.1667,-53.8333,81.79,46,4,6.26,UY,1732906477
276,Camaná,-16.6228,-72.7111,71.47,81,99,8.93,PE,1732906478
277,Katsuura,35.1333,140.3,53.65,54,1,31.0,JP,1732906181
278,Okhotsk,59.3833,143.3,11.61,77,83,9.19,RU,1732906480
279,Nuku'alofa,-21.1333,-175.2,75.54,88,100,13.8,TO,1732906481
280,Shingū,33.7333,135.9833,47.44,77,86,12.53,JP,1732906482
281,Piti Village,13.4626,144.6933,82.45,90,40,8.05,GU,1732906483
282,Tôlanaro,-25.0319,46.9987,71.67,88,75,5.75,MG,1732906484
283,Cromwell,41.5951,-72.6454,46.11,60,99,6.46,US,1732906486
284,Pisco,-13.7,-76.2167,72.01,83,65,10.36,PE,1732906487
285,Batouri,4.4333,14.3667,76.77,45,58,2.71,CM,1732906488
286,Prieska,-29.6641,22.7474,71.98,12,0,3.6,ZA,1732906489
287,Peniscola,40.3359,0.3613,61.0,54,0,3.0,ES,1732906490
288,Labrador City,52.9463,-66.9114,21.11,89,100,9.22,CA,1732906491
289,Chamdo,31.1667,97.2333,18.23,36,0,2.98,CN,1732906493
290,New Norfolk,-42.7826,147.0587,56.91,88,100,1.1,AU,1732906495
291,Olyokminsk,60.3736,120.4264,0.86,95,100,5.82,RU,1732906496
292,Kirakira,-10.4544,161.9205,79.39,88,100,4.59,SB,1732906215
293,Karratha,-20.7377,116.8463,80.55,77,18,15.01,AU,1732906498
294,Berezovyy,51.6667,135.7,23.61,97,100,3.31,RU,1732906499
295,Çivril,38.3014,29.7386,44.19,61,8,4.56,TR,1732906500
296,St. John's,47.5649,-52.7093,42.15,96,100,28.77,CA,1732905882
297,Kiunga,-6.1219,141.2906,73.24,100,100,1.97,PG,1732906503
298,Calbuco,-41.768,-73.1273,55.47,71,0,14.88,CL,1732906454
299,Labytnangi,66.6572,66.4183,19.89,95,100,7.56,RU,1732906505
300,Aldinga Beach,-35.2793,138.4604,63.66,90,100,3.2,AU,1732906506
301,Vilyuysk,63.7553,121.6247,-3.71,96,100,6.69,RU,1732906508
302,Khadyzhensk,44.4256,39.5319,37.08,93,18,0.94,RU,1732906509
303,Gorodoviki,46.1353,41.9656,32.77,65,18,5.68,RU,1732906510
304,Rio Grande,-32.035,-52.0986,73.45,67,52,9.01,BR,1732906485
305,Kamen'-na-Obi,53.7884,81.3423,17.04,99,81,1.92,RU,1732906512
306,Queenstown,-31.8976,26.8753,56.71,68,0,5.59,ZA,1732906513
307,Usogorsk,63.4106,48.6872,21.99,97,98,6.69,RU,1732906516
308,Cidreira,-30.1811,-50.2056,71.56,87,96,10.98,BR,1732906517
309,Lālganj,25.8667,85.1833,65.21,39,0,4.09,IN,1732906518
310,Saint-Florent-sur-Cher,46.9955,2.2508,38.43,82,6,8.37,FR,1732906519
311,Yenotayevka,47.2456,47.0281,35.76,78,100,8.93,RU,1732906520
312,Vilyuchinsk,52.9306,158.4028,28.67,87,100,6.96,RU,1732906521
313,Soatá,6.3337,-72.6828,61.97,61,95,2.77,CO,1732906522
314,Wakkanai,45.4094,141.6739,31.75,65,100,25.64,JP,1732906524
315,Quryq,43.2,51.65,39.33,72,3,15.35,KZ,1732906525
316,Bandundu Province,-3.3167,17.3667,76.53,76,91,2.71,CD,1732906526
317,Gamba,-2.65,10.0,77.94,90,73,6.89,GA,1732906527
318,Puerto Francisco de Orellana,-0.4667,-76.9667,84.25,79,75,2.3,EC,1732906528
319,Lázaro Cárdenas,17.9583,-102.2,84.18,63,2,6.69,MX,1732906387
320,Bārah,13.7,30.3667,66.4,20,8,12.12,SD,1732906532
321,Tarimoro,20.2833,-100.75,82.54,17,0,4.18,MX,1732906504
322,Phillip Island,-38.4835,145.231,63.59,95,100,16.91,AU,1732906534
323,Kangiwa,12.5521,3.8187,73.51,20,2,9.64,NG,1732906535
324,Zapadnaya Dvina,56.259,32.0745,31.28,96,100,2.82,RU,1732906536
325,Majuro,7.0897,171.3803,80.56,89,100,18.41,MH,1732906537
326,Shilka,51.85,116.0333,-2.47,96,2,1.03,RU,1732906538
327,Tolmezzo,46.4075,13.0175,41.43,72,1,7.34,IT,1732906541
328,Gornji Petrovci,46.8053,16.2225,39.58,76,100,14.18,SI,1732906542
329,Sept-Îles,50.2001,-66.3821,34.23,94,100,9.22,CA,1732906244
330,Mount Gambier,-37.8333,140.7667,60.55,99,100,5.32,AU,1732906544
331,Nānākuli,21.3906,-158.1547,73.35,79,0,4.61,US,1732906545
332,Ilhabela,-23.7781,-45.3581,75.81,97,100,3.67,BR,1732906546
333,Madīnat ash Shamāl,26.1293,51.2009,68.54,55,6,19.28,QA,1732906547
334,Onega,63.9061,38.1404,33.58,88,100,13.87,RU,1732906549
335,Usinsk,65.9939,57.5281,23.72,94,100,20.49,RU,1732906550
336,Bulnes,-36.7423,-72.2985,77.76,10,9,7.74,CL,1732906551
337,Acaraú,-2.8856,-40.12,83.8,62,100,18.79,BR,1732906552
338,Tofol,5.3248,163.0078,83.34,77,35,17.78,FM,1732906553
339,Punta Arenas,-53.15,-70.9167,53.71,58,75,28.77,CL,1732906309
340,Broome,42.2506,-75.833,36.46,80,100,10.36,US,1732906555
341,Uturoa,-16.7333,-151.4333,81.25,75,100,13.73,PF,1732906557
342,Bardai,11.65,7.2333,66.02,29,1,8.77,NG,1732906558
343,Candolim,15.5181,73.7626,73.4,68,98,2.3,IN,1732906559
344,Palikir,6.9248,158.1611,81.34,83,100,3.44,FM,1732906560
345,Saint-Pierre,-21.3393,55.4781,76.68,57,0,5.75,RE,1732906561
346,Ash Shaţrah,31.4117,46.1742,56.48,35,0,8.3,IQ,1732906562
347,Chibougamau,49.9168,-74.3659,26.22,74,100,9.22,CA,1732906548
348,Volda,62.1476,6.0741,47.08,81,75,0.0,NO,1732906564
349,Dusa Marreb,5.535,46.3861,79.83,57,34,17.6,SO,1732906566
350,Pandan,14.0453,124.1694,79.65,86,100,17.74,PH,1732906567
351,Pastos Bons,-6.6017,-44.0767,98.76,24,30,1.97,BR,1732906568
352,Fano,43.8204,13.0121,50.81,1,0,20.04,IT,1732906569
353,Tallahassee,30.4383,-84.2807,48.04,93,100,8.05,US,1732906274
354,Vicuña,-30.0319,-70.7081,88.77,26,0,8.01,CL,1732906571
355,Yanchep,-31.55,115.6833,71.17,63,97,6.4,AU,1732906572
356,Lashio,22.9333,97.75,58.17,99,45,2.15,MM,1732906573
357,Whitehorse,60.7161,-135.0538,-3.23,76,100,9.22,CA,1732906575
358,Kavieng,-2.5744,150.7967,82.26,78,46,8.63,PG,1732906576
359,Myeik,12.4333,98.6,73.87,72,94,6.26,MM,1732906577
360,La Sarre,48.8002,-79.1996,25.95,89,100,7.0,CA,1732906578
361,Kushk,33.2957,61.9522,52.02,53,0,10.8,AF,1732906579
362,Ta`ū,-14.2336,-169.5144,80.56,79,100,9.78,AS,1732906580
363,Eureka,40.8021,-124.1637,52.57,85,0,7.43,US,1732906355
364,Litoměřice,50.5335,14.1318,37.71,72,100,2.98,CZ,1732906582
365,Uliastai,47.7417,96.8444,6.93,66,0,6.64,MN,1732906583
366,Gafsa,34.425,8.7842,59.22,55,0,4.61,TN,1732906585
367,Katsuren-haebaru,26.3369,127.8719,64.78,55,75,5.75,JP,1732906586
368,Dīla,6.4167,38.3167,64.9,76,97,3.98,ET,1732906587
369,Red Deer,52.2668,-113.802,4.28,85,100,11.5,CA,1732906563
370,Loughrea,53.1969,-8.5669,53.17,94,93,8.19,IE,1732906589
371,Crane,31.3974,-102.3501,50.2,23,100,9.57,US,1732906591
372,Itararé,-24.1125,-49.3317,78.8,78,100,5.79,BR,1732906592
373,Pemangkat,1.1667,108.9667,78.1,77,100,6.49,ID,1732906593
374,Villiers,-27.0303,28.6006,60.39,16,0,3.06,ZA,1732906594
375,Luang Prabang,19.8856,102.1347,60.37,85,26,1.3,LA,1732906595
376,San Antonio,29.4241,-98.4936,59.14,39,0,10.36,US,1732906145
377,Kutum,14.2,24.6667,61.12,22,5,9.93,SD,1732906597
378,Muscat,23.6139,58.5922,78.89,65,4,10.98,OM,1732906598
379,Prince Rupert,54.3161,-130.3201,40.69,70,100,11.5,CA,1732906601
380,Bubaque,11.2833,-15.8333,83.53,61,0,11.16,GW,1732906602
381,Nadi,-17.8,177.4167,73.4,88,75,0.0,FJ,1732906603
382,Ishinomaki,38.4167,141.3,43.57,79,99,15.01,JP,1732906604
383,Chernyshevskiy,63.0128,112.4714,-26.57,100,100,2.51,RU,1732906605
384,Acapulco de Juárez,16.8634,-99.8901,80.02,62,0,5.86,MX,1732906378
385,Calderitas,18.55,-88.25,86.11,48,40,5.75,MX,1732906608
386,Bodø,67.28,14.405,32.04,70,75,18.41,NO,1732906609
387,Keflavik,64.0049,-22.5624,25.23,58,0,13.8,IS,1732906610
388,Zhangye,38.9342,100.4517,27.34,60,70,5.35,CN,1732906611
389,Monywa,22.1167,95.1333,69.49,71,77,5.46,MM,1732906612
390,Sihanoukville,10.6093,103.5296,76.95,65,40,3.44,KH,1732906506
391,Salina Cruz,16.1667,-95.2,89.82,43,0,24.52,MX,1732906614
392,Lubao,14.9167,120.55,80.31,82,100,6.46,PH,1732906615
393,Hithadhoo,-0.6,73.0833,81.34,82,17,26.62,MV,1732906617
394,Portel,-1.9356,-50.8211,98.02,30,6,7.29,BR,1732906618
395,Viedma,-40.8135,-62.9967,70.47,31,6,15.48,AR,1732906619
396,Alo,6.5486,4.2686,79.2,75,92,5.77,NG,1732906620
397,Touros,-5.1989,-35.4608,82.49,65,22,15.99,BR,1732906622
398,Kodinsk,58.6881,99.1844,2.23,99,84,4.29,RU,1732906623
399,Rongelap,11.1635,166.8941,82.44,78,2,22.62,MH,1732906625
400,Pokhara,28.2333,83.9833,54.43,56,2,4.85,NP,1732906626
401,Mata-Utu,-13.2816,-176.1745,80.4,80,100,6.98,WF,1732906627
402,Mamadysh,55.7152,51.408,29.71,84,100,13.18,RU,1732906628
403,Isabela,6.7085,121.9711,78.85,89,100,5.82,PH,1732906630
404,Cooma,-36.2333,149.1333,60.17,98,100,8.81,AU,1732906631
405,Mingora,34.7758,72.3625,51.48,65,90,7.4,PK,1732906632
406,Big Spring,32.2504,-101.4787,50.45,30,0,6.91,US,1732906460
407,Impfondo,1.6381,18.0667,77.74,69,100,2.77,CG,1732906634
408,Ambalangoda,6.2355,80.0538,80.98,85,100,10.38,LK,1732906635
409,Boda,4.3189,17.4695,77.54,50,48,2.82,CF,1732906636
410,Kelibia,36.8476,11.0939,64.65,82,40,4.61,TN,1732906637
411,Kembé,4.6228,21.8865,74.21,51,99,2.46,CF,1732906638
412,Celso Ramos,-27.6344,-51.3364,82.08,54,74,6.98,BR,1732906640
413,Al Ghayzah,16.2079,52.176,78.76,68,0,0.72,YE,1732906641
414,Kapaa,22.0752,-159.319,70.48,96,0,5.75,US,1732906642
415,Codrington,-38.2667,141.9667,61.7,98,100,8.48,AU,1732906643
416,Laurel,39.0993,-76.8483,45.59,64,100,12.66,US,1732906644
417,Yanbu,24.0891,38.0637,75.24,46,0,9.22,SA,1732906645
418,Alice,27.7523,-98.0697,58.73,50,100,12.66,US,1732906646
419,El Granada,37.5027,-122.4694,57.85,58,75,5.75,US,1732906647
420,Namtsy,62.7161,129.6658,-9.02,98,100,3.47,RU,1732906649
421,San Antonio de Palé,-1.4014,5.6325,80.26,82,28,10.98,GQ,1732906650
422,Sumenep,-7.0167,113.8667,80.76,82,99,5.21,ID,1732906651
423,Cabo San Lucas,22.8909,-109.9124,78.76,63,100,5.99,MX,1732906652
424,Coracora,-15.0333,-73.7833,57.47,74,100,4.85,PE,1732906653
425,Rzhanitsa,53.4284,33.923,19.51,98,75,3.42,RU,1732906654
426,San Rafael del Sur,11.8485,-86.4384,84.81,67,62,2.51,NI,1732906655
427,Westport,41.1415,-73.3579,45.81,60,75,10.36,US,1732906380
428,Mālvan,16.0667,73.4667,73.56,48,26,9.62,IN,1732906658
429,Amos,48.5669,-78.1162,25.74,87,100,5.3,CA,1732906462
430,Holyhead,53.3062,-4.6321,53.6,87,100,29.93,GB,1732906660
431,Koulamoutou,-1.1303,12.4736,75.09,91,100,1.79,GA,1732906661
432,Es Castell,39.8795,4.2854,57.88,88,20,3.44,ES,1732906662
433,Barjora,23.4333,87.2833,68.86,44,97,5.5,IN,1732906663
434,Jayapura,-2.5333,140.7,78.19,92,100,3.62,ID,1732906664
435,Bliss Corner,41.6118,-70.9384,47.01,56,0,18.01,US,1732906665
436,Souillac,-20.5167,57.5167,77.38,83,40,12.66,MU,1732906666
437,Fort McMurray,56.7268,-111.381,-9.89,77,100,4.61,CA,1732906540
438,Mhamid,29.82,-5.72,70.7,25,100,1.32,MA,1732906669
439,Berbeşti,44.9833,23.8833,40.6,91,100,1.39,RO,1732906670
440,Chongwe,-15.3292,28.682,72.27,74,55,5.59,ZM,1732906671
441,Mount Pearl,47.5166,-52.7813,41.32,98,100,28.77,CA,1732906673
442,Vila Velha,-20.3297,-40.2925,89.55,77,20,14.97,BR,1732906674
443,Sorel-Tracy,46.0334,-73.1159,35.49,66,100,11.79,CA,1732906676
444,Nandyāl,15.4833,78.4833,73.42,68,100,4.81,IN,1732906677
445,Laguna,38.421,-121.4238,51.24,74,0,0.0,US,1732906678
446,Ingeniero Jacobacci,-41.3427,-69.5448,70.09,15,14,6.29,AR,1732906679
447,Arrondissement de Fontenay-le-Comte,46.5833,-1.0,51.39,91,90,2.98,FR,1732906680
448,Mejit,10.2753,170.8646,81.41,79,100,24.99,MH,1732906681
449,Guangzhou,23.1167,113.25,62.69,33,40,4.27,CN,1732906603
450,Whitburn,54.9533,-1.3686,45.01,81,100,20.6,GB,1732906683
451,Santiago de Cao,-7.9589,-79.2392,66.33,82,99,11.5,PE,1732906685
452,Kalymnos,36.95,26.9833,62.13,77,20,2.3,GR,1732906686
453,Ghadames,30.1337,9.5007,61.29,33,0,7.74,LY,1732906687
454,Port Alfred,-33.5906,26.891,65.17,77,17,1.99,ZA,1732906453
455,Vicuña Mackenna,-33.9197,-64.3922,68.88,42,100,7.38,AR,1732906689
456,Lae,-6.7221,146.9847,73.26,85,100,6.71,PG,1732906690
457,Weihai,37.5017,122.1136,41.85,68,0,10.29,CN,1732906691
458,Xigazê,29.25,88.8833,26.01,14,0,2.39,CN,1732906692
459,Santa Cruz de la Sierra,-17.8,-63.1667,92.66,58,40,23.02,BO,1732906412
460,Le Port,-20.9373,55.2919,76.96,94,9,5.93,RE,1732906695
461,Burutu,5.3509,5.5076,81.99,72,100,5.48,NG,1732906696
462,Rizhao,35.4275,119.4553,42.44,45,0,3.53,CN,1732906697
463,Angra dos Reis,-23.0067,-44.3181,76.68,89,100,3.27,BR,1732906698
464,Patacamaya,-17.2333,-67.9167,63.73,37,98,14.88,BO,1732906699
465,Kendari,-3.945,122.4989,75.63,95,100,3.24,ID,1732906700
466,Kudahuvadhoo,2.6708,72.8944,82.76,71,87,22.86,MV,1732906701
467,Sierra Grande,-41.606,-65.3557,71.38,23,10,5.64,AR,1732906702
468,Plettenberg Bay,-34.0527,23.3716,62.73,82,12,7.83,ZA,1732906704
469,Royan,45.6285,-1.0281,55.81,80,21,4.72,FR,1732906705
470,Fort Bragg,35.139,-79.006,55.13,45,0,6.91,US,1732906707
471,Port Douglas,-16.4833,145.4667,78.31,86,69,1.81,AU,1732906708
472,Nishinoomote,30.7333,131.0,60.37,66,100,28.12,JP,1732906709
473,Yorkton,51.2167,-102.4677,-7.76,84,75,6.91,CA,1732906710
474,Bodaybo,57.8506,114.1933,-17.32,100,59,1.52,RU,1732906712
475,Zaragoza,41.6561,-0.8773,45.05,100,100,4.61,ES,1732906503
476,Longaví,-35.9667,-71.6833,84.47,10,100,7.49,CL,1732906714
477,Mil’kovo,55.6078,37.7956,34.63,69,55,5.53,RU,1732906715
478,Santa Marta,11.2408,-74.199,87.89,77,100,3.67,CO,1732906461
479,Val-d'Or,48.1002,-77.7828,24.89,80,100,6.91,CA,1732906526
480,Estrela,-28.0611,-50.9383,77.32,68,83,7.25,BR,1732906718
481,Strezhevoy,60.7333,77.5889,15.22,93,31,7.4,RU,1732906719
482,Tuy Hoa,13.0833,109.3,72.18,88,96,11.52,VN,1732906721
483,Kitimat,54.0524,-128.6534,39.9,29,100,8.99,CA,1732906722
484,Caleta de Carquín,-11.0925,-77.6267,72.14,78,47,10.47,PE,1732906723
485,Rémire-Montjoly,4.9167,-52.2667,77.04,94,75,14.97,GF,1732906724
486,Atherton,53.5237,-2.4935,48.34,81,100,5.99,GB,1732906725
487,Fangshan,39.6983,115.9925,44.31,49,73,4.23,CN,1732906536
488,Egilsstadir,65.2653,-14.3948,15.71,92,100,2.3,IS,1732906727
489,Katima Mulilo,-17.5,24.2667,85.08,36,100,3.69,NA,1732906728
490,Shenkursk,62.1091,42.896,34.99,87,100,10.38,RU,1732906730
491,Ouadda,8.0777,22.4007,71.42,37,93,4.65,CF,1732906731
492,La Paz,-16.5,-68.15,61.57,48,75,14.97,BO,1732906573
493,Taman',45.2117,36.7161,43.74,78,0,16.06,RU,1732906477
494,Fortaleza,-3.7227,-38.5247,86.13,58,0,13.8,BR,1732906569
495,Palmira,3.5394,-76.3036,81.34,54,100,5.01,CO,1732906735
496,Fort St. John,56.2499,-120.8529,-4.11,77,100,8.05,CA,1732906736
497,Horta,38.5333,-28.6333,60.44,80,75,20.71,PT,1732906737
498,Weining,26.85,104.2333,41.79,90,100,2.73,CN,1732906739
499,Sarh,9.1429,18.3923,78.64,29,85,4.12,TD,1732906740
500,São Vicente,-23.9631,-46.3919,82.36,74,20,1.99,BR,1732906741
501,Kishkenekol',53.6364,72.3414,5.16,94,6,8.46,KZ,1732906742
502,Zaozërsk,69.4005,32.4476,25.88,76,0,25.66,RU,1732906743
503,Smithers,54.7804,-127.1743,26.92,100,75,8.05,CA,1732906505
504,Rayachoti,14.05,78.75,69.01,84,100,6.67,IN,1732906745
505,Broken Hill,-31.95,141.4333,65.64,82,0,5.48,AU,1732906747
506,Belokurikha,51.9959,84.9896,32.68,78,100,3.4,RU,1732906748
507,Mushie,-3.0167,16.9,78.78,74,100,1.74,CD,1732906749
508,Witbank,-25.8713,29.2332,63.93,32,0,3.85,ZA,1732906750
509,Port Hedland,-20.3167,118.5667,82.45,83,5,11.5,AU,1732906751
510,Hammerfest,70.6634,23.6821,30.65,47,40,29.93,NO,1732906752
511,Trebinje,42.7119,18.3442,48.56,37,0,26.46,BA,1732906753
512,Gmina Strzelin,50.7816,17.0648,39.0,87,100,8.37,PL,1732906754
513,Gebeit,21.0667,36.3167,63.84,66,5,4.23,SD,1732906756
514,Hilo,19.7297,-155.09,72.1,93,100,3.44,US,1732906757
515,Shubarkuduk,49.1447,56.4872,30.06,57,10,3.89,KZ,1732906758
516,Arawa,-6.2132,155.5367,78.75,84,100,1.48,PG,1732906759
517,Meulaboh,4.1363,96.1285,76.15,89,100,3.71,ID,1732906760
518,Mildura,-34.2,142.15,67.06,85,100,6.89,AU,1732906761
519,Olhão,37.0286,-7.8411,64.29,94,0,4.61,PT,1732906762
520,Vail,32.0479,-110.712,67.77,36,100,3.0,US,1732906763
521,São Gabriel da Cachoeira,-0.1303,-67.0892,93.0,59,20,2.3,BR,1732906765
522,Kenora,49.8167,-94.4337,13.17,79,75,13.8,CA,1732906687
523,Mormugao,15.4,73.8,72.66,68,100,2.3,IN,1732906767
524,Kuta,-8.7233,115.1723,82.35,89,40,13.8,ID,1732906768
525,Esim,4.8699,-2.2405,80.46,77,0,9.17,GH,1732906769
526,Nova Viçosa,-17.8919,-39.3719,83.34,66,100,14.61,BR,1732906770
527,Rosetta,31.4044,30.4164,65.62,65,92,8.59,EG,1732906772
528,Tidjikja,18.5564,-11.4271,75.79,14,4,11.16,MR,1732906773
529,Beyneu,45.3167,55.2,37.06,91,100,3.2,KZ,1732906774
530,Casper,42.8666,-106.3131,35.73,47,0,24.16,US,1732906753
531,Faya-Largeau,17.9257,19.1043,65.79,27,9,14.85,TD,1732906776
532,Bougouni,11.417,-7.479,76.98,21,0,5.48,ML,1732906777
533,Irymple,-34.25,142.1667,67.08,85,100,7.0,AU,1732906778
534,Kurchatov,51.6601,35.6521,29.98,81,87,2.98,RU,1732906779
535,Wainwright,52.839,-110.8572,-4.47,85,79,5.97,CA,1732906780
536,Atlantic,39.4668,-74.6663,49.05,52,20,17.27,US,1732906782
537,Puerto Wilches,7.3483,-73.896,89.71,58,63,2.55,CO,1732906783
538,Mugia,43.1041,-9.2179,60.8,92,100,16.04,ES,1732906784
539,Monrovia,6.3005,-10.7969,80.49,77,0,8.52,LR,1732906785
540,Inarajan Village,13.2736,144.7484,81.39,90,100,19.35,GU,1732906786
541,Kapuskasing,49.4169,-82.4331,26.69,93,100,10.36,CA,1732906787
542,Malinyi,-8.9333,36.1333,82.9,55,43,1.95,TZ,1732906789
543,Rukungiri,-0.8411,29.9419,59.47,97,59,1.16,UG,1732906790
544,Portage la Prairie,49.9728,-98.2926,-0.11,71,20,12.66,CA,1732906791
545,Manokwari,-0.8667,134.0833,80.4,79,80,6.4,ID,1732906792
546,Dunedin,-45.8742,170.5036,50.81,68,8,8.99,NZ,1732906793
547,Al Kharj,24.155,47.3346,61.38,32,0,7.49,SA,1732906703
548,Timmins,48.4669,-81.3331,24.62,86,100,6.91,CA,1732906629
549,Comandante Fontana,-25.3345,-59.6821,90.55,59,100,6.49,AR,1732906796
550,Papao,-17.75,-149.55,83.88,78,100,14.14,PF,1732906797
551,Grand Falls-Windsor,48.9332,-55.6649,36.5,92,100,4.0,CA,1732906799
552,Al Khārijah,25.4514,30.5464,59.4,57,2,7.52,EG,1732906800
553,Itamaracá,-7.7478,-34.8256,81.37,65,100,9.06,BR,1732906801
554,Wexford,52.3342,-6.4575,55.89,100,100,13.0,IE,1732906802
555,Gaigeturi,33.4644,126.3183,55.45,44,75,16.11,KR,1732906803
556,Hauterive,46.0901,3.4459,44.35,87,80,2.1,FR,1732906804
557,Koupéla,12.1794,-0.3517,75.33,18,13,9.4,BF,1732906805
558,Severnoye,56.3491,78.3619,3.24,99,73,3.49,RU,1732906807
559,Newman,37.3138,-121.0208,52.05,76,100,1.99,US,1732906599
560,Vokhtoga,58.8147,41.0461,33.19,95,100,8.32,RU,1732906809
561,Boali,4.8005,18.1275,79.03,48,84,1.86,CF,1732906810
562,Ceadîr-Lunga,46.055,28.8303,48.79,87,100,12.62,MD,1732906811
563,Soroti,1.7146,33.6111,70.88,64,67,3.8,UG,1732906812
564,Pudozh,61.8099,36.5345,35.46,87,100,11.54,RU,1732906813
565,Sabha,27.0377,14.4283,57.76,44,0,6.44,LY,1732906815
566,Bamboo Flat,11.7,92.7167,84.29,74,40,4.61,IN,1732906816
567,Kupang,-10.1667,123.5833,82.06,80,99,1.19,ID,1732906817
568,Peterhead,57.5058,-1.7981,48.58,90,100,23.62,GB,1732906818
569,Kourou,5.1552,-52.6478,82.58,71,63,8.81,GF,1732906819
570,Selfoss,63.9331,-20.9971,23.04,38,100,10.76,IS,1732906634
571,Ginir,7.1333,40.7,60.58,46,0,5.61,ET,1732906821
572,Garhwa,24.1833,83.8167,56.59,58,4,2.37,IN,1732906822
573,Barreirinhas,-2.7469,-42.8264,86.83,55,100,12.57,BR,1732906824
574,Benguela,-12.5763,13.4055,77.81,78,90,2.1,AO,1732906825
575,Yreka,41.7354,-122.6345,38.32,51,0,1.23,US,1732906826
576,Bandar Lampung,-5.4254,105.258,76.39,90,100,1.95,ID,1732906827
577,Yakeshi,49.2833,120.7333,-9.87,100,92,2.95,CN,1732906828
578,Madalena,41.2162,-8.3345,61.38,88,100,1.97,PT,1732906829
579,Smara,26.7384,-11.6719,77.97,18,100,10.98,EH,1732906831
580,Kalamata,37.0389,22.1142,61.11,85,75,1.01,GR,1732906784
581,Dongsheng,39.8161,109.9776,28.13,40,100,8.79,CN,1732906629
582,Lensk,60.7253,114.9278,-12.62,99,89,5.21,RU,1732906835
583,Moyynkum,44.2914,72.9469,47.55,86,100,7.2,KZ,1732906836
584,Muli,2.9167,73.5667,82.96,68,36,22.68,MV,1732906837
585,Amalāpuram,16.5833,82.0167,75.94,84,100,8.08,IN,1732906838
586,Kuching,1.55,110.3333,80.04,93,40,3.44,MY,1732906542
